[{"lat":" 19.271500","long":" 73.329600","place":"Asole","coverage":" 172.865505","i1":"1","i2":"2","i3":"-1","i4":"-1","i5":"-1","i6":"-1","i7":"-1"},{"lat":" 19.264000","long":" 73.279500","place":"Kelni","coverage":" 167.141217","i1":"-1","i2":"-1","i3":"-1","i4":"-1","i5":"-1","i6":"-1","i7":"-1"},{"lat":" 19.274400","long":" 73.392000","place":"Kudavali","coverage":" 179.100261","i1":"4","i2":"-1","i3":"-1","i4":"-1","i5":"-1","i6":"-1","i7":"-1"},{"lat":" 19.389100","long":" 73.385600","place":"Lenad Kh.","coverage":" 204.781545","i1":"6","i2":"-1","i3":"-1","i4":"-1","i5":"-1","i6":"-1","i7":"-1"},{"lat":" 19.300200","long":" 73.421000","place":"Pawale","coverage":" 222.556885","i1":"-1","i2":"-1","i3":"-1","i4":"-1","i5":"-1","i6":"-1","i7":"-1"},{"lat":" 19.358400","long":" 73.303100","place":"Shei","coverage":" 172.945462","i1":"6","i2":"-1","i3":"-1","i4":"-1","i5":"-1","i6":"-1","i7":"-1"},{"lat":" 19.362200","long":" 73.373200","place":"Shendrun","coverage":" 246.831014","i1":"-1","i2":"-1","i3":"-1","i4":"-1","i5":"-1","i6":"-1","i7":"-1"}]